{"sctg2":"32","name":"Steel","description":"Raw steel production in Great Lakes mills fed by Minnesota iron ore and Appalachian coking coal","year":2022,"assembly_zones":[{"zone_id":181,"zone_name":"Chicago Metro","state":"IN","latitude":41.8781,"longitude":-87.6298,"total_precursor_tons_k":21064.81,"total_est_cost_usd":750588692,"precursors":[{"sctg2":"14","name":"Iron Ore","role":"Primary feedstock for blast furnaces","ratio":1.5,"total_tons_k":12766.14,"total_value_m":875.43,"total_tmiles_m":7857.83,"est_cost_usd":550047835,"primary_mode":"Intermodal","mode_split":[{"mode":"Intermodal","pct":0.909},{"mode":"Water","pct":0.082},{"mode":"Truck","pct":0.009},{"mode":"Rail","pct":0.0}],"num_sources":1,"sources":[{"zone_id":279,"zone_name":"Minnesota","state":"MN","latitude":46.73,"longitude":-94.69,"tons_k":12616.49,"value_m":661.47,"tmiles_m":7793.62,"pct_of_precursor":0.988,"primary_mode":"Intermodal","est_cost_usd":545553218}]},{"sctg2":"15","name":"Coking Coal","role":"Reduces iron ore to metallic iron","ratio":0.7,"total_tons_k":8298.67,"total_value_m":442.21,"total_tmiles_m":5729.74,"est_cost_usd":200540857,"primary_mode":"Rail","mode_split":[{"mode":"Rail","pct":0.973},{"mode":"Truck","pct":0.026},{"mode":"Water","pct":0.001},{"mode":"Intermodal","pct":0.0}],"num_sources":5,"sources":[{"zone_id":540,"zone_name":"West Virginia","state":"WV","latitude":38.6,"longitude":-80.45,"tons_k":3366.71,"value_m":292.43,"tmiles_m":1812.35,"pct_of_precursor":0.406,"primary_mode":"Rail","est_cost_usd":63432180},{"zone_id":560,"zone_name":"Wyoming","state":"WY","latitude":43.08,"longitude":-107.29,"tons_k":2225.14,"value_m":27.75,"tmiles_m":2708.6,"pct_of_precursor":0.268,"primary_mode":"Rail","est_cost_usd":94801129},{"zone_id":179,"zone_name":"Illinois","state":"IL","latitude":40.12,"longitude":-89.4,"tons_k":1399.66,"value_m":43.45,"tmiles_m":310.24,"pct_of_precursor":0.169,"primary_mode":"Rail","est_cost_usd":10858550},{"zone_id":219,"zone_name":"Kentucky","state":"KY","latitude":37.84,"longitude":-84.27,"tons_k":921.48,"value_m":65.32,"tmiles_m":445.05,"pct_of_precursor":0.111,"primary_mode":"Rail","est_cost_usd":15576730},{"zone_id":89,"zone_name":"Colorado","state":"CO","latitude":38.83,"longitude":-105.78,"tons_k":363.96,"value_m":9.38,"tmiles_m":443.36,"pct_of_precursor":0.044,"primary_mode":"Rail","est_cost_usd":15517612}]}]},{"zone_id":392,"zone_name":"Cleveland OH","state":"OH","latitude":41.5,"longitude":-81.69,"total_precursor_tons_k":5983.45,"total_est_cost_usd":104342683,"precursors":[{"sctg2":"14","name":"Iron Ore","role":"Primary feedstock for blast furnaces","ratio":1.5,"total_tons_k":4020.05,"total_value_m":610.39,"total_tmiles_m":3227.72,"est_cost_usd":48415791,"primary_mode":"Water","mode_split":[{"mode":"Water","pct":0.948},{"mode":"Truck","pct":0.052},{"mode":"Intermodal","pct":0.0}],"num_sources":3,"sources":[{"zone_id":279,"zone_name":"Minnesota","state":"MN","latitude":46.73,"longitude":-94.69,"tons_k":3809.36,"value_m":236.68,"tmiles_m":3162.57,"pct_of_precursor":0.948,"primary_mode":"Water","est_cost_usd":47438525},{"zone_id":399,"zone_name":"Ohio","state":"OH","latitude":40.42,"longitude":-82.91,"tons_k":112.53,"value_m":34.77,"tmiles_m":13.7,"pct_of_precursor":0.028,"primary_mode":"Truck","est_cost_usd":1644182},{"zone_id":11,"zone_name":"Birmingham AL","state":"AL","latitude":33.52,"longitude":-86.8,"tons_k":41.2,"value_m":227.78,"tmiles_m":29.89,"pct_of_precursor":0.01,"primary_mode":"Truck","est_cost_usd":3586562}]},{"sctg2":"15","name":"Coking Coal","role":"Reduces iron ore to metallic iron","ratio":0.7,"total_tons_k":1963.4,"total_value_m":97.92,"total_tmiles_m":1597.91,"est_cost_usd":55926892,"primary_mode":"Rail","mode_split":[{"mode":"Rail","pct":0.498},{"mode":"Water","pct":0.363},{"mode":"Truck","pct":0.139}],"num_sources":3,"sources":[{"zone_id":540,"zone_name":"West Virginia","state":"WV","latitude":38.6,"longitude":-80.45,"tons_k":977.22,"value_m":53.8,"tmiles_m":313.09,"pct_of_precursor":0.498,"primary_mode":"Rail","est_cost_usd":10958260},{"zone_id":219,"zone_name":"Kentucky","state":"KY","latitude":37.84,"longitude":-84.27,"tons_k":713.04,"value_m":29.33,"tmiles_m":1273.93,"pct_of_precursor":0.363,"primary_mode":"Water","est_cost_usd":19108921},{"zone_id":392,"zone_name":"Cleveland OH","state":"OH","latitude":41.5,"longitude":-81.69,"tons_k":262.63,"value_m":9.28,"tmiles_m":7.08,"pct_of_precursor":0.134,"primary_mode":"Truck","est_cost_usd":850068}]}]},{"zone_id":261,"zone_name":"Detroit MI","state":"MI","latitude":42.33,"longitude":-83.05,"total_precursor_tons_k":9314.16,"total_est_cost_usd":502257159,"precursors":[{"sctg2":"14","name":"Iron Ore","role":"Primary feedstock for blast furnaces","ratio":1.5,"total_tons_k":4551.73,"total_value_m":296.39,"total_tmiles_m":3650.39,"est_cost_usd":255527602,"primary_mode":"Intermodal","mode_split":[{"mode":"Intermodal","pct":0.991},{"mode":"Truck","pct":0.009},{"mode":"Rail","pct":0.0}],"num_sources":1,"sources":[{"zone_id":279,"zone_name":"Minnesota","state":"MN","latitude":46.73,"longitude":-94.69,"tons_k":4512.31,"value_m":226.76,"tmiles_m":3630.39,"pct_of_precursor":0.991,"primary_mode":"Intermodal","est_cost_usd":254126980}]},{"sctg2":"15","name":"Coking Coal","role":"Reduces iron ore to metallic iron","ratio":0.7,"total_tons_k":4762.43,"total_value_m":108.92,"total_tmiles_m":7049.42,"est_cost_usd":246729557,"primary_mode":"Rail","mode_split":[{"mode":"Rail","pct":1.0},{"mode":"Truck","pct":0.0},{"mode":"Intermodal","pct":0.0}],"num_sources":3,"sources":[{"zone_id":560,"zone_name":"Wyoming","state":"WY","latitude":43.08,"longitude":-107.29,"tons_k":2548.0,"value_m":31.91,"tmiles_m":3755.24,"pct_of_precursor":0.535,"primary_mode":"Rail","est_cost_usd":131433427},{"zone_id":300,"zone_name":"Montana","state":"MT","latitude":46.88,"longitude":-110.36,"tons_k":1715.64,"value_m":26.2,"tmiles_m":3081.86,"pct_of_precursor":0.36,"primary_mode":"Rail","est_cost_usd":107864942},{"zone_id":540,"zone_name":"West Virginia","state":"WV","latitude":38.6,"longitude":-80.45,"tons_k":496.25,"value_m":48.91,"tmiles_m":211.15,"pct_of_precursor":0.104,"primary_mode":"Rail","est_cost_usd":7390169}]}]},{"zone_id":422,"zone_name":"Pittsburgh PA (PA Part)","state":"PA","latitude":40.44,"longitude":-80.0,"total_precursor_tons_k":33303.59,"total_est_cost_usd":368787891,"precursors":[{"sctg2":"14","name":"Iron Ore","role":"Primary feedstock for blast furnaces","ratio":1.5,"total_tons_k":3456.34,"total_value_m":623.19,"total_tmiles_m":3602.76,"est_cost_usd":252192948,"primary_mode":"Intermodal","mode_split":[{"mode":"Intermodal","pct":0.963},{"mode":"Truck","pct":0.037},{"mode":"Rail","pct":0.0}],"num_sources":3,"sources":[{"zone_id":279,"zone_name":"Minnesota","state":"MN","latitude":46.73,"longitude":-94.69,"tons_k":3327.14,"value_m":173.8,"tmiles_m":3493.84,"pct_of_precursor":0.963,"primary_mode":"Intermodal","est_cost_usd":244569021},{"zone_id":540,"zone_name":"West Virginia","state":"WV","latitude":38.6,"longitude":-80.45,"tons_k":42.14,"value_m":8.22,"tmiles_m":8.55,"pct_of_precursor":0.012,"primary_mode":"Truck","est_cost_usd":1026072},{"zone_id":160,"zone_name":"Idaho","state":"ID","latitude":43.62,"longitude":-114.74,"tons_k":32.3,"value_m":214.79,"tmiles_m":73.1,"pct_of_precursor":0.009,"primary_mode":"Truck","est_cost_usd":8772145}]},{"sctg2":"15","name":"Coking Coal","role":"Reduces iron ore to metallic iron","ratio":0.7,"total_tons_k":29847.25,"total_value_m":1360.62,"total_tmiles_m":7773.0,"est_cost_usd":116594943,"primary_mode":"Water","mode_split":[{"mode":"Water","pct":0.539},{"mode":"Rail","pct":0.348},{"mode":"Truck","pct":0.113},{"mode":"Intermodal","pct":0.0}],"num_sources":5,"sources":[{"zone_id":540,"zone_name":"West Virginia","state":"WV","latitude":38.6,"longitude":-80.45,"tons_k":21501.63,"value_m":856.43,"tmiles_m":5797.58,"pct_of_precursor":0.72,"primary_mode":"Water","est_cost_usd":86963671},{"zone_id":429,"zone_name":"Pennsylvania","state":"PA","latitude":41.2,"longitude":-77.19,"tons_k":5518.41,"value_m":378.85,"tmiles_m":913.63,"pct_of_precursor":0.185,"primary_mode":"Rail","est_cost_usd":31976878},{"zone_id":399,"zone_name":"Ohio","state":"OH","latitude":40.42,"longitude":-82.91,"tons_k":1701.35,"value_m":63.84,"tmiles_m":795.28,"pct_of_precursor":0.057,"primary_mode":"Water","est_cost_usd":11929141},{"zone_id":422,"zone_name":"Pittsburgh PA (PA Part)","state":"PA","latitude":40.44,"longitude":-80.0,"tons_k":725.13,"value_m":32.31,"tmiles_m":23.86,"pct_of_precursor":0.024,"primary_mode":"Truck","est_cost_usd":2862787},{"zone_id":219,"zone_name":"Kentucky","state":"KY","latitude":37.84,"longitude":-84.27,"tons_k":396.49,"value_m":27.55,"tmiles_m":240.8,"pct_of_precursor":0.013,"primary_mode":"Rail","est_cost_usd":8427920}]}]},{"zone_id":19,"zone_name":"Alabama","state":"AL","latitude":32.38,"longitude":-86.3,"total_precursor_tons_k":1320.01,"total_est_cost_usd":53173238,"precursors":[{"sctg2":"14","name":"Iron Ore","role":"Primary feedstock for blast furnaces","ratio":1.5,"total_tons_k":21.58,"total_value_m":23.55,"total_tmiles_m":23.01,"est_cost_usd":2761260,"primary_mode":"Truck","mode_split":[{"mode":"Truck","pct":1.0},{"mode":"Intermodal","pct":0.0}],"num_sources":9,"sources":[{"zone_id":42,"zone_name":"Tucson AZ","state":"AZ","latitude":32.22,"longitude":-110.97,"tons_k":8.31,"value_m":3.83,"tmiles_m":13.46,"pct_of_precursor":0.385,"primary_mode":"Truck","est_cost_usd":1614707},{"zone_id":559,"zone_name":"Wisconsin","state":"WI","latitude":44.27,"longitude":-89.62,"tons_k":3.64,"value_m":9.17,"tmiles_m":3.4,"pct_of_precursor":0.168,"primary_mode":"Truck","est_cost_usd":407890},{"zone_id":219,"zone_name":"Kentucky","state":"KY","latitude":37.84,"longitude":-84.27,"tons_k":2.94,"value_m":1.95,"tmiles_m":1.18,"pct_of_precursor":0.136,"primary_mode":"Truck","est_cost_usd":141915},{"zone_id":551,"zone_name":"Milwaukee WI","state":"WI","latitude":43.04,"longitude":-87.91,"tons_k":2.15,"value_m":3.7,"tmiles_m":1.81,"pct_of_precursor":0.099,"primary_mode":"Truck","est_cost_usd":216992},{"zone_id":261,"zone_name":"Detroit MI","state":"MI","latitude":42.33,"longitude":-83.05,"tons_k":1.88,"value_m":1.92,"tmiles_m":1.47,"pct_of_precursor":0.087,"primary_mode":"Truck","est_cost_usd":176980},{"zone_id":422,"zone_name":"Pittsburgh PA (PA Part)","state":"PA","latitude":40.44,"longitude":-80.0,"tons_k":0.98,"value_m":0.98,"tmiles_m":0.78,"pct_of_precursor":0.045,"primary_mode":"Truck","est_cost_usd":93556},{"zone_id":179,"zone_name":"Illinois","state":"IL","latitude":40.12,"longitude":-89.4,"tons_k":0.88,"value_m":0.01,"tmiles_m":0.56,"pct_of_precursor":0.041,"primary_mode":"Truck","est_cost_usd":67369},{"zone_id":212,"zone_name":"Louisville KY-IN (KY Part)","state":"KY","latitude":38.25,"longitude":-85.76,"tons_k":0.69,"value_m":0.01,"tmiles_m":0.29,"pct_of_precursor":0.032,"primary_mode":"Truck","est_cost_usd":35016},{"zone_id":50,"zone_name":"Arkansas","state":"AR","latitude":34.75,"longitude":-92.29,"tons_k":0.12,"value_m":1.96,"tmiles_m":0.06,"pct_of_precursor":0.006,"primary_mode":"Truck","est_cost_usd":6795}]},{"sctg2":"15","name":"Coking Coal","role":"Reduces iron ore to metallic iron","ratio":0.7,"total_tons_k":1298.43,"total_value_m":122.4,"total_tmiles_m":1440.34,"est_cost_usd":50411978,"primary_mode":"Rail","mode_split":[{"mode":"Rail","pct":0.654},{"mode":"Water","pct":0.278},{"mode":"Truck","pct":0.068}],"num_sources":4,"sources":[{"zone_id":560,"zone_name":"Wyoming","state":"WY","latitude":43.08,"longitude":-107.29,"tons_k":781.66,"value_m":10.74,"tmiles_m":1280.72,"pct_of_precursor":0.602,"primary_mode":"Rail","est_cost_usd":44825224},{"zone_id":19,"zone_name":"Alabama","state":"AL","latitude":32.38,"longitude":-86.3,"tons_k":428.81,"value_m":99.79,"tmiles_m":130.84,"pct_of_precursor":0.33,"primary_mode":"Water","est_cost_usd":1962530},{"zone_id":219,"zone_name":"Kentucky","state":"KY","latitude":37.84,"longitude":-84.27,"tons_k":63.1,"value_m":7.91,"tmiles_m":24.66,"pct_of_precursor":0.049,"primary_mode":"Truck","est_cost_usd":2959403},{"zone_id":11,"zone_name":"Birmingham AL","state":"AL","latitude":33.52,"longitude":-86.8,"tons_k":20.5,"value_m":2.34,"tmiles_m":1.92,"pct_of_precursor":0.016,"primary_mode":"Truck","est_cost_usd":230506}]}]},{"zone_id":429,"zone_name":"Pennsylvania","state":"PA","latitude":41.2,"longitude":-77.19,"total_precursor_tons_k":20272.33,"total_est_cost_usd":304043245,"precursors":[{"sctg2":"14","name":"Iron Ore","role":"Primary feedstock for blast furnaces","ratio":1.5,"total_tons_k":44.14,"total_value_m":184.52,"total_tmiles_m":32.66,"est_cost_usd":3919777,"primary_mode":"Truck","mode_split":[{"mode":"Truck","pct":0.84},{"mode":"Rail","pct":0.104},{"mode":"Intermodal","pct":0.056}],"num_sources":12,"sources":[{"zone_id":19,"zone_name":"Alabama","state":"AL","latitude":32.38,"longitude":-86.3,"tons_k":13.82,"value_m":2.94,"tmiles_m":12.56,"pct_of_precursor":0.313,"primary_mode":"Truck","est_cost_usd":1506896},{"zone_id":261,"zone_name":"Detroit MI","state":"MI","latitude":42.33,"longitude":-83.05,"tons_k":9.84,"value_m":9.84,"tmiles_m":4.4,"pct_of_precursor":0.223,"primary_mode":"Truck","est_cost_usd":528164},{"zone_id":422,"zone_name":"Pittsburgh PA (PA Part)","state":"PA","latitude":40.44,"longitude":-80.0,"tons_k":4.92,"value_m":0.98,"tmiles_m":0.94,"pct_of_precursor":0.111,"primary_mode":"Truck","est_cost_usd":112359},{"zone_id":219,"zone_name":"Kentucky","state":"KY","latitude":37.84,"longitude":-84.27,"tons_k":4.91,"value_m":29.39,"tmiles_m":2.83,"pct_of_precursor":0.111,"primary_mode":"Truck","est_cost_usd":339199},{"zone_id":321,"zone_name":"Las Vegas NV","state":"NV","latitude":36.17,"longitude":-115.14,"tons_k":2.94,"value_m":27.51,"tmiles_m":6.98,"pct_of_precursor":0.067,"primary_mode":"Truck","est_cost_usd":838162},{"zone_id":369,"zone_name":"New York","state":"NY","latitude":42.17,"longitude":-74.95,"tons_k":2.44,"value_m":0.71,"tmiles_m":0.57,"pct_of_precursor":0.055,"primary_mode":"Truck","est_cost_usd":68082},{"zone_id":361,"zone_name":"Albany NY","state":"NY","latitude":42.65,"longitude":-73.75,"tons_k":2.06,"value_m":0.09,"tmiles_m":0.62,"pct_of_precursor":0.047,"primary_mode":"Truck","est_cost_usd":74761},{"zone_id":473,"zone_name":"Knoxville TN","state":"TN","latitude":35.96,"longitude":-83.92,"tons_k":0.99,"value_m":3.09,"tmiles_m":0.58,"pct_of_precursor":0.022,"primary_mode":"Truck","est_cost_usd":69307},{"zone_id":491,"zone_name":"Salt Lake City UT","state":"UT","latitude":40.76,"longitude":-111.89,"tons_k":0.84,"value_m":0.02,"tmiles_m":1.82,"pct_of_precursor":0.019,"primary_mode":"Intermodal","est_cost_usd":127510},{"zone_id":50,"zone_name":"Arkansas","state":"AR","latitude":34.75,"longitude":-92.29,"tons_k":0.37,"value_m":69.71,"tmiles_m":0.4,"pct_of_precursor":0.008,"primary_mode":"Truck","est_cost_usd":47603},{"zone_id":364,"zone_name":"Rochester NY","state":"NY","latitude":43.16,"longitude":-77.61,"tons_k":0.3,"value_m":0.01,"tmiles_m":0.1,"pct_of_precursor":0.007,"primary_mode":"Intermodal","est_cost_usd":6963},{"zone_id":300,"zone_name":"Montana","state":"MT","latitude":46.88,"longitude":-110.36,"tons_k":0.28,"value_m":7.27,"tmiles_m":0.57,"pct_of_precursor":0.006,"primary_mode":"Truck","est_cost_usd":68432}]},{"sctg2":"15","name":"Coking Coal","role":"Reduces iron ore to metallic iron","ratio":0.7,"total_tons_k":20228.19,"total_value_m":1030.05,"total_tmiles_m":2501.03,"est_cost_usd":300123468,"primary_mode":"Truck","mode_split":[{"mode":"Truck","pct":0.699},{"mode":"Rail","pct":0.301},{"mode":"Water","pct":0.0},{"mode":"Intermodal","pct":0.0}],"num_sources":3,"sources":[{"zone_id":429,"zone_name":"Pennsylvania","state":"PA","latitude":41.2,"longitude":-77.19,"tons_k":18155.17,"value_m":936.9,"tmiles_m":1727.67,"pct_of_precursor":0.898,"primary_mode":"Truck","est_cost_usd":207320979},{"zone_id":540,"zone_name":"West Virginia","state":"WV","latitude":38.6,"longitude":-80.45,"tons_k":1516.16,"value_m":55.83,"tmiles_m":699.35,"pct_of_precursor":0.075,"primary_mode":"Rail","est_cost_usd":24477109},{"zone_id":422,"zone_name":"Pittsburgh PA (PA Part)","state":"PA","latitude":40.44,"longitude":-80.0,"tons_k":535.0,"value_m":27.57,"tmiles_m":66.25,"pct_of_precursor":0.026,"primary_mode":"Truck","est_cost_usd":7949818}]}]},{"zone_id":399,"zone_name":"Ohio","state":"OH","latitude":40.42,"longitude":-82.91,"total_precursor_tons_k":24051.72,"total_est_cost_usd":195658190,"precursors":[{"sctg2":"14","name":"Iron Ore","role":"Primary feedstock for blast furnaces","ratio":1.5,"total_tons_k":129.52,"total_value_m":446.52,"total_tmiles_m":68.67,"est_cost_usd":8240563,"primary_mode":"Truck","mode_split":[{"mode":"Truck","pct":0.963},{"mode":"Rail","pct":0.023},{"mode":"Intermodal","pct":0.014},{"mode":"Air","pct":0.0}],"num_sources":12,"sources":[{"zone_id":219,"zone_name":"Kentucky","state":"KY","latitude":37.84,"longitude":-84.27,"tons_k":36.28,"value_m":14.69,"tmiles_m":11.32,"pct_of_precursor":0.28,"primary_mode":"Truck","est_cost_usd":1358209},{"zone_id":179,"zone_name":"Illinois","state":"IL","latitude":40.12,"longitude":-89.4,"tons_k":23.39,"value_m":5.84,"tmiles_m":10.07,"pct_of_precursor":0.181,"primary_mode":"Truck","est_cost_usd":1207918},{"zone_id":361,"zone_name":"Albany NY","state":"NY","latitude":42.65,"longitude":-73.75,"tons_k":17.64,"value_m":15.0,"tmiles_m":10.75,"pct_of_precursor":0.136,"primary_mode":"Truck","est_cost_usd":1290140},{"zone_id":261,"zone_name":"Detroit MI","state":"MI","latitude":42.33,"longitude":-83.05,"tons_k":12.77,"value_m":13.77,"tmiles_m":2.6,"pct_of_precursor":0.099,"primary_mode":"Truck","est_cost_usd":311409},{"zone_id":392,"zone_name":"Cleveland OH","state":"OH","latitude":41.5,"longitude":-81.69,"tons_k":11.8,"value_m":40.18,"tmiles_m":1.56,"pct_of_precursor":0.091,"primary_mode":"Truck","est_cost_usd":187148},{"zone_id":19,"zone_name":"Alabama","state":"AL","latitude":32.38,"longitude":-86.3,"tons_k":6.89,"value_m":0.98,"tmiles_m":4.43,"pct_of_precursor":0.053,"primary_mode":"Truck","est_cost_usd":531907},{"zone_id":321,"zone_name":"Las Vegas NV","state":"NV","latitude":36.17,"longitude":-115.14,"tons_k":6.85,"value_m":104.05,"tmiles_m":14.14,"pct_of_precursor":0.053,"primary_mode":"Truck","est_cost_usd":1697198},{"zone_id":499,"zone_name":"Utah","state":"UT","latitude":39.32,"longitude":-111.09,"tons_k":3.72,"value_m":182.35,"tmiles_m":6.84,"pct_of_precursor":0.029,"primary_mode":"Truck","est_cost_usd":821321},{"zone_id":559,"zone_name":"Wisconsin","state":"WI","latitude":44.27,"longitude":-89.62,"tons_k":2.59,"value_m":18.61,"tmiles_m":1.47,"pct_of_precursor":0.02,"primary_mode":"Truck","est_cost_usd":176300},{"zone_id":124,"zone_name":"Tampa FL","state":"FL","latitude":27.95,"longitude":-82.46,"tons_k":1.97,"value_m":4.93,"tmiles_m":2.06,"pct_of_precursor":0.015,"primary_mode":"Truck","est_cost_usd":246647},{"zone_id":271,"zone_name":"Minneapolis-St. Paul MN-WI (MN Part)","state":"MN","latitude":44.98,"longitude":-93.27,"tons_k":1.97,"value_m":4.93,"tmiles_m":1.57,"pct_of_precursor":0.015,"primary_mode":"Truck","est_cost_usd":188695},{"zone_id":551,"zone_name":"Milwaukee WI","state":"WI","latitude":43.04,"longitude":-87.91,"tons_k":1.78,"value_m":1.23,"tmiles_m":0.78,"pct_of_precursor":0.014,"primary_mode":"Truck","est_cost_usd":93639}]},{"sctg2":"15","name":"Coking Coal","role":"Reduces iron ore to metallic iron","ratio":0.7,"total_tons_k":23922.2,"total_value_m":1161.86,"total_tmiles_m":12494.51,"est_cost_usd":187417627,"primary_mode":"Water","mode_split":[{"mode":"Water","pct":0.748},{"mode":"Rail","pct":0.197},{"mode":"Truck","pct":0.055},{"mode":"Intermodal","pct":0.0}],"num_sources":5,"sources":[{"zone_id":540,"zone_name":"West Virginia","state":"WV","latitude":38.6,"longitude":-80.45,"tons_k":15628.98,"value_m":783.89,"tmiles_m":8613.04,"pct_of_precursor":0.653,"primary_mode":"Water","est_cost_usd":129195613},{"zone_id":399,"zone_name":"Ohio","state":"OH","latitude":40.42,"longitude":-82.91,"tons_k":6067.99,"value_m":236.79,"tmiles_m":3507.27,"pct_of_precursor":0.254,"primary_mode":"Water","est_cost_usd":52609042},{"zone_id":393,"zone_name":"Columbus OH","state":"OH","latitude":39.96,"longitude":-83.0,"tons_k":1578.48,"value_m":80.31,"tmiles_m":251.29,"pct_of_precursor":0.066,"primary_mode":"Rail","est_cost_usd":8795297},{"zone_id":392,"zone_name":"Cleveland OH","state":"OH","latitude":41.5,"longitude":-81.69,"tons_k":378.33,"value_m":12.86,"tmiles_m":36.77,"pct_of_precursor":0.016,"primary_mode":"Truck","est_cost_usd":4412512},{"zone_id":219,"zone_name":"Kentucky","state":"KY","latitude":37.84,"longitude":-84.27,"tons_k":223.25,"value_m":39.91,"tmiles_m":69.06,"pct_of_precursor":0.009,"primary_mode":"Truck","est_cost_usd":8286733}]}]},{"zone_id":131,"zone_name":"Atlanta GA","state":"GA","latitude":33.75,"longitude":-84.39,"total_precursor_tons_k":3102.14,"total_est_cost_usd":77774625,"precursors":[{"sctg2":"14","name":"Iron Ore","role":"Primary feedstock for blast furnaces","ratio":1.5,"total_tons_k":188.34,"total_value_m":119.73,"total_tmiles_m":48.76,"est_cost_usd":1706606,"primary_mode":"Rail","mode_split":[{"mode":"Rail","pct":0.663},{"mode":"Truck","pct":0.335},{"mode":"Intermodal","pct":0.003}],"num_sources":8,"sources":[{"zone_id":131,"zone_name":"Atlanta GA","state":"GA","latitude":33.75,"longitude":-84.39,"tons_k":133.98,"value_m":20.2,"tmiles_m":7.8,"pct_of_precursor":0.711,"primary_mode":"Rail","est_cost_usd":272846},{"zone_id":124,"zone_name":"Tampa FL","state":"FL","latitude":27.95,"longitude":-82.46,"tons_k":21.54,"value_m":44.26,"tmiles_m":10.28,"pct_of_precursor":0.114,"primary_mode":"Truck","est_cost_usd":1233464},{"zone_id":551,"zone_name":"Milwaukee WI","state":"WI","latitude":43.04,"longitude":-87.91,"tons_k":17.68,"value_m":13.19,"tmiles_m":15.12,"pct_of_precursor":0.094,"primary_mode":"Truck","est_cost_usd":1814706},{"zone_id":361,"zone_name":"Albany NY","state":"NY","latitude":42.65,"longitude":-73.75,"tons_k":7.02,"value_m":6.9,"tmiles_m":7.2,"pct_of_precursor":0.037,"primary_mode":"Truck","est_cost_usd":864205},{"zone_id":121,"zone_name":"Jacksonville FL","state":"FL","latitude":30.33,"longitude":-81.66,"tons_k":1.98,"value_m":0.12,"tmiles_m":0.73,"pct_of_precursor":0.01,"primary_mode":"Truck","est_cost_usd":87070},{"zone_id":491,"zone_name":"Salt Lake City UT","state":"UT","latitude":40.76,"longitude":-111.89,"tons_k":1.44,"value_m":5.57,"tmiles_m":2.71,"pct_of_precursor":0.008,"primary_mode":"Truck","est_cost_usd":325626},{"zone_id":559,"zone_name":"Wisconsin","state":"WI","latitude":44.27,"longitude":-89.62,"tons_k":1.11,"value_m":0.04,"tmiles_m":1.05,"pct_of_precursor":0.006,"primary_mode":"Truck","est_cost_usd":126546},{"zone_id":81,"zone_name":"Denver CO","state":"CO","latitude":39.74,"longitude":-104.99,"tons_k":1.05,"value_m":0.04,"tmiles_m":1.5,"pct_of_precursor":0.006,"primary_mode":"Truck","est_cost_usd":180355}]},{"sctg2":"15","name":"Coking Coal","role":"Reduces iron ore to metallic iron","ratio":0.7,"total_tons_k":2913.8,"total_value_m":102.4,"total_tmiles_m":2173.37,"est_cost_usd":76068019,"primary_mode":"Rail","mode_split":[{"mode":"Rail","pct":0.991},{"mode":"Truck","pct":0.009}],"num_sources":3,"sources":[{"zone_id":179,"zone_name":"Illinois","state":"IL","latitude":40.12,"longitude":-89.4,"tons_k":2669.45,"value_m":83.41,"tmiles_m":2069.43,"pct_of_precursor":0.916,"primary_mode":"Rail","est_cost_usd":72430163},{"zone_id":219,"zone_name":"Kentucky","state":"KY","latitude":37.84,"longitude":-84.27,"tons_k":218.41,"value_m":8.82,"tmiles_m":94.44,"pct_of_precursor":0.075,"primary_mode":"Rail","est_cost_usd":3305427},{"zone_id":519,"zone_name":"Virginia","state":"VA","latitude":37.43,"longitude":-78.66,"tons_k":25.12,"value_m":9.33,"tmiles_m":9.32,"pct_of_precursor":0.009,"primary_mode":"Truck","est_cost_usd":1118600}]}]}]}